[
  {
    "PLACE_NAME": "서울미성우편취급국",
    "ADDRESS": "서울특별시 강남구 압구정로134",
    "LAT": 37.5244736,
    "LNG": 127.0234912,
    "RISK": 1
  },
  {
    "PLACE_NAME": "청담동순도리 신사점",
    "ADDRESS": "서울특별시 강남구 강남대로152길 15",
    "LAT": 37.5174757,
    "LNG": 127.0206602,
    "RISK": 2
  },
  {
    "PLACE_NAME": "(주)바라코드",
    "ADDRESS": "서울특별시 강남구 신사동 538번지 14층",
    "LAT": 37.5182879,
    "LNG": 127.0236168,
    "RISK": 2
  },
  {
    "PLACE_NAME": "강남을지대학교병원",
    "ADDRESS": "서울특별시 강남구 도산대로 202",
    "LAT": 37.5194363,
    "LNG": 127.0284878,
    "RISK": 2
  },
  {
    "PLACE_NAME": "도마야끼덕아웃",
    "ADDRESS": "서울특별시 강남구 신사동 655-1",
    "LAT": 37.5252738,
    "LNG": 127.0381172,
    "RISK": 2
  },
  {
    "PLACE_NAME": "유스앤영의원 청담본점",
    "ADDRESS": "서울특별시 강남구 도산대로55길 49 2층",
    "LAT": 37.526899,
    "LNG": 127.0409665,
    "RISK": 1
  },
  {
    "PLACE_NAME": "청담스퀘어",
    "ADDRESS": "서울특별시 강남구 청담동 도산대로 420",
    "LAT": 37.5232518,
    "LNG": 127.0420152,
    "RISK": 1
  },
  {
    "PLACE_NAME": "루비나부티크",
    "ADDRESS": "서울특별시 강남구 청담동 48",
    "LAT": 37.5239357,
    "LNG": 127.047746,
    "RISK": 2
  },
  {
    "PLACE_NAME": "한국금거래소 강남본점",
    "ADDRESS": "서울특별시 강남구 삼성로 736",
    "LAT": 37.5212553,
    "LNG": 127.0492411,
    "RISK": 2
  },
  {
    "PLACE_NAME": "국민은행 청담역지점",
    "ADDRESS": "서울특별시 강남구 삼성로 706",
    "LAT": 37.5192929,
    "LNG": 127.0501957,
    "RISK": 1
  },
  {
    "PLACE_NAME": "신한은행 강남구청역지점",
    "ADDRESS": "서울특별시 강남구 삼성2동 1",
    "LAT": 37.5170544,
    "LNG": 127.04168,
    "RISK": 3
  },
  {
    "PLACE_NAME": "(주)서울상호저축은행",
    "ADDRESS": "서울특별시 강남구 삼성동 번지 1층 9-21",
    "LAT": 37.5142853,
    "LNG": 127.0426066,
    "RISK": 2
  },
  {
    "PLACE_NAME": "윤완규이비인후과의원",
    "ADDRESS": "서울특별시 강남구 논현동 143",
    "LAT": 37.5094902,
    "LNG": 127.0224476,
    "RISK": 2
  },
  {
    "PLACE_NAME": "시우성형외과의원",
    "ADDRESS": "서울특별시 강남구 글라스톤빌딩 8층",
    "LAT": 37.5046604,
    "LNG": 127.0253798,
    "RISK": 2
  },
  {
    "PLACE_NAME": "RB DINING & BAR",
    "ADDRESS": "서울특별시 강남구 논현2동 236-8",
    "LAT": 37.5084298,
    "LNG": 127.0367496,
    "RISK": 1
  },
  {
    "PLACE_NAME": "카페베네 아크로힐스점",
    "ADDRESS": "서울특별시 강남구 언주로 604",
    "LAT": 37.5089369,
    "LNG": 127.0389707,
    "RISK": 1
  },
  {
    "PLACE_NAME": "선정릉역",
    "ADDRESS": "서울특별시 역삼동",
    "LAT": 37.5103762,
    "LNG": 127.0439451,
    "RISK": 1
  },
  {
    "PLACE_NAME": "선릉탑비뇨기과",
    "ADDRESS": "서울특별시 강남구 역삼1동 705-25",
    "LAT": 37.5053454,
    "LNG": 127.0483748,
    "RISK": 2
  },
  {
    "PLACE_NAME": "연세라인업의원",
    "ADDRESS": "서울특별시 강남구 테헤란로 222",
    "LAT": 37.5018356,
    "LNG": 127.0411799,
    "RISK": 1
  },
  {
    "PLACE_NAME": "한국은행 강남본부",
    "ADDRESS": "서울특별시 강남구 테헤란로 202",
    "LAT": 37.5008268,
    "LNG": 127.0379598,
    "RISK": 1
  },
  {
    "PLACE_NAME": "갓덴스시 강남점",
    "ADDRESS": "서울특별시 강남구 테헤란로 109",
    "LAT": 37.498769,
    "LNG": 127.0288367,
    "RISK": 2
  },
  {
    "PLACE_NAME": "역삼823빌딩",
    "ADDRESS": "서울특별시 강남구 역삼동 823-16",
    "LAT": 37.4976751,
    "LNG": 127.032386,
    "RISK": 1
  },
  {
    "PLACE_NAME": "센트럴흉뷰와과",
    "ADDRESS": "서울특별시 강남구 역삼로 149",
    "LAT": 37.4948754,
    "LNG": 127.035505,
    "RISK": 2
  },
  {
    "PLACE_NAME": "Ananti at Gangnam",
    "ADDRESS": "서울특별시 강남구 논현로 734",
    "LAT": 37.4957149,
    "LNG": 127.0394339,
    "RISK": 1
  },
  {
    "PLACE_NAME": "개나리삼성래미안아파트",
    "ADDRESS": "서울특별시 강남구 역삼로 306",
    "LAT": 37.4988529,
    "LNG": 127.0459694,
    "RISK": 2
  },
  {
    "PLACE_NAME": "대치송파",
    "ADDRESS": "서울특별시 강남구 대치동 904 18번지 1층",
    "LAT": 37.5020662,
    "LNG": 127.0553344,
    "RISK": 2
  },
  {
    "PLACE_NAME": "오뚜기센터",
    "ADDRESS": "서울특별시 강남구 영동대로 308",
    "LAT": 37.5020144,
    "LNG": 127.067164,
    "RISK": 1
  }
]
